[
  {
    "delivery_id": "0",
    "driver_id": "AG",
    "status": "pending",
    "label": "Union Square Package",
    "address": {
      "street": "252 Geary Blvd",
      "postalCode": "94108",
      "city": "San Francisco",
      "country": "USA",
      "latitude": 37.787639,
      "longitude": -122.4074808
    },
    "customerNote": "Leave at the Macy's support desk",
    "items": [
      {
        "item_id": "ABC123",
        "item_label": "Amazon-A",
        "item_sku": "ADJW38DJR287"
      },
      {
        "item_id": "DEF456",
        "item_label": "Amazon-B",
        "item_sku": "GKI1643XJW"
      }
    ]
  },
  {
    "delivery_id": "1",
    "driver_id": "AG",
    "status": "pending",
    "label": "Alex's Package",
    "address": {
      "street": "353 Sacramento Str",
      "postalCode": "94111",
      "city": "San Francisco",
      "country": "USA",
      "latitude": 37.7940981,
      "longitude": -122.3996401
    },
    "customerNote": "Leave at the reception on floor 8th",
    "items": [
      {
        "item_id": "ABC123",
        "item_label": "Amazon-A",
        "item_sku": "ADJW38DJR287"
      },
      {
        "item_id": "DEF456",
        "item_label": "Amazon-B",
        "item_sku": "GKI1643XJW"
      }
    ]
  },
  {
    "delivery_id": "2",
    "driver_id": "AG",
    "status": "pending",
    "label": "Kashyap's Package",
    "address": {
      "street": "555 Market Str",
      "postalCode": "94105",
      "city": "San Francisco",
      "country": "USA",
      "latitude": 37.7899845,
      "longitude": -122.3998704
    },
    "customerNote": "Ring my phone so I can pick it up: 4155109422",
    "items": [
      {
        "item_id": "AAA",
        "item_label": "Amazon-C",
        "item_sku": "ASNWKE2916DJK"
      },
      {
        "item_id": "BBB",
        "item_label": "Amazon-D",
        "item_sku": "SNRKCVO59327CS"
      }
    ]
  },
  {
    "delivery_id": "3",
    "driver_id": "AG",
    "status": "pending",
    "label": "AG's Package",
    "address": {
      "street": "1 Market Str",
      "postalCode": "94105",
      "city": "San Francisco",
      "country": "USA",
      "latitude": 37.7941585,
      "longitude": -122.3947916
    },
    "items": [
      { "item_id": "HJK", "item_label": "BestBuy", "item_sku": "283SJKCRJ385" }
    ]
  },
  {
    "delivery_id": "4",
    "driver_id": "Amanpreet",
    "status": "pending",
    "label": "Amanpreet's Package",
    "address": {
      "street": "353 Sacramento Str",
      "postalCode": "94111",
      "city": "San Francisco",
      "country": "USA",
      "latitude": 37.7940981,
      "longitude": -122.3996401
    },
    "customerNote": "Leave at the reception on floor 8th",
    "items": [
      {
        "item_id": "ABC123",
        "item_label": "Amazon-A",
        "item_sku": "ADJW38DJR287"
      },
      {
        "item_id": "DEF456",
        "item_label": "Amazon-B",
        "item_sku": "GKI1643XJW"
      }
    ]
  },
  {
    "delivery_id": "5",
    "driver_id": "Amanpreet",
    "status": "pending",
    "label": "Kashyap's Package",
    "address": {
      "street": "555 Market Str",
      "postalCode": "94105",
      "city": "San Francisco",
      "country": "USA",
      "latitude": 37.7899845,
      "longitude": -122.3998704
    },
    "customerNote": "Ring my phone so I can pick it up: 4155109422",
    "items": [
      {
        "item_id": "AAA",
        "item_label": "Amazon-C",
        "item_sku": "ASNWKE2916DJK"
      },
      {
        "item_id": "BBB",
        "item_label": "Amazon-D",
        "item_sku": "SNRKCVO59327CS"
      }
    ]
  },
  {
    "delivery_id": "6",
    "driver_id": "Amanpreet",
    "status": "pending",
    "label": "Amanpreet's Package",
    "address": {
      "street": "1 Market Str",
      "postalCode": "94105",
      "city": "San Francisco",
      "country": "USA",
      "latitude": 37.7941585,
      "longitude": -122.3947916
    },
    "items": [
      { "item_id": "HJK", "item_label": "BestBuy", "item_sku": "283SJKCRJ385" }
    ]
  },
  {
    "delivery_id": "7",
    "driver_id": "Richard",
    "status": "pending",
    "label": "Richard's Package",
    "address": {
      "street": "353 Sacramento Str",
      "postalCode": "94111",
      "city": "San Francisco",
      "country": "USA",
      "latitude": 37.7940981,
      "longitude": -122.3996401
    },
    "customerNote": "Leave at the reception on floor 8th",
    "items": [
      {
        "item_id": "ABC123",
        "item_label": "Amazon-A",
        "item_sku": "ADJW38DJR287"
      },
      {
        "item_id": "DEF456",
        "item_label": "Amazon-B",
        "item_sku": "GKI1643XJW"
      }
    ]
  },
  {
    "delivery_id": "8",
    "driver_id": "Richard",
    "status": "pending",
    "label": "Kashyap's Package",
    "address": {
      "street": "555 Market Str",
      "postalCode": "94105",
      "city": "San Francisco",
      "country": "USA",
      "latitude": 37.7899845,
      "longitude": -122.3998704
    },
    "customerNote": "Ring my phone so I can pick it up: 4155109422",
    "items": [
      {
        "item_id": "AAA",
        "item_label": "Amazon-C",
        "item_sku": "ASNWKE2916DJK"
      },
      {
        "item_id": "BBB",
        "item_label": "Amazon-D",
        "item_sku": "SNRKCVO59327CS"
      }
    ]
  },
  {
    "delivery_id": "9",
    "driver_id": "Richard",
    "status": "pending",
    "label": "Richard's Package",
    "address": {
      "street": "1 Market Str",
      "postalCode": "94105",
      "city": "San Francisco",
      "country": "USA",
      "latitude": 37.7941585,
      "longitude": -122.3947916
    },
    "items": [
      { "item_id": "HJK", "item_label": "BestBuy", "item_sku": "283SJKCRJ385" }
    ]
  },
  {
    "delivery_id": "10",
    "driver_id": "Richard",
    "status": "visited",
    "enteredAt": "2020-02-04T23:54:37.506Z",
    "label": "Richard's Package",
    "address": {
      "street": "1 Market Str",
      "postalCode": "94105",
      "city": "San Francisco",
      "country": "USA",
      "latitude": 37.7941585,
      "longitude": -122.3947916
    },
    "items": [
      { "item_id": "HJK", "item_label": "BestBuy", "item_sku": "283SJKCRJ385" }
    ]
  },
  {
    "delivery_id": "11",
    "driver_id": "Richard",
    "status": "visited",
    "enteredAt": "2020-02-04T22:54:37.506Z",
    "exitedAt": "2020-02-04T23:54:37.506Z",
    "label": "Richard's Package #2",
    "address": {
      "street": "1 Market Str",
      "postalCode": "94105",
      "city": "San Francisco",
      "country": "USA",
      "latitude": 37.7941585,
      "longitude": -122.3947916
    },
    "items": [
      { "item_id": "HJK", "item_label": "BestBuy", "item_sku": "283SJKCRJ385" }
    ]
  },
  {
    "delivery_id": "12",
    "driver_id": "Richard",
    "status": "completed",
    "enteredAt": "2020-02-04T22:54:37.506Z",
    "exitedAt": "2020-02-04T23:54:37.506Z",
    "completedAt": "2020-02-04T23:56:37.506Z",
    "label": "Richard's Package #3",
    "address": {
      "street": "1 Market Str",
      "postalCode": "94105",
      "city": "San Francisco",
      "country": "USA",
      "latitude": 37.7941585,
      "longitude": -122.3947916
    },
    "items": [
      { "item_id": "HJK", "item_label": "BestBuy", "item_sku": "283SJKCRJ385" }
    ]
  },
  {
    "delivery_id": "13",
    "driver_id": "AG",
    "status": "visited",
    "enteredAt": "2020-02-04T23:54:37.506Z",
    "label": "AG's Package",
    "address": {
      "street": "1 Market Str",
      "postalCode": "94105",
      "city": "San Francisco",
      "country": "USA",
      "latitude": 37.7941585,
      "longitude": -122.3947916
    },
    "items": [
      { "item_id": "HJK", "item_label": "BestBuy", "item_sku": "283SJKCRJ385" }
    ]
  },
  {
    "delivery_id": "14",
    "driver_id": "AG",
    "status": "visited",
    "enteredAt": "2020-02-04T22:54:37.506Z",
    "exitedAt": "2020-02-04T23:54:37.506Z",
    "label": "AG's Package #2",
    "address": {
      "street": "1 Market Str",
      "postalCode": "94105",
      "city": "San Francisco",
      "country": "USA",
      "latitude": 37.7941585,
      "longitude": -122.3947916
    },
    "items": [
      { "item_id": "HJK", "item_label": "BestBuy", "item_sku": "283SJKCRJ385" }
    ]
  },
  {
    "delivery_id": "15",
    "driver_id": "AG",
    "status": "completed",
    "enteredAt": "2020-02-04T22:54:37.506Z",
    "exitedAt": "2020-02-04T23:54:37.506Z",
    "completedAt": "2020-02-04T23:56:37.506Z",
    "label": "AG's Package #3",
    "address": {
      "street": "1 Market Str",
      "postalCode": "94105",
      "city": "San Francisco",
      "country": "USA",
      "latitude": 37.7941585,
      "longitude": -122.3947916
    },
    "items": [
      { "item_id": "HJK", "item_label": "BestBuy", "item_sku": "283SJKCRJ385" }
    ]
  },
  {
    "delivery_id": "16",
    "driver_id": "Amanpreet",
    "status": "visited",
    "enteredAt": "2020-02-04T21:54:37.506Z",
    "label": "Amanpreet's Package",
    "address": {
      "street": "1 Market Str",
      "postalCode": "94105",
      "city": "San Francisco",
      "country": "USA",
      "latitude": 37.7941585,
      "longitude": -122.3947916
    },
    "items": [
      { "item_id": "HJK", "item_label": "BestBuy", "item_sku": "283SJKCRJ385" }
    ]
  },
  {
    "delivery_id": "17",
    "driver_id": "Amanpreet",
    "status": "visited",
    "enteredAt": "2020-02-04T22:54:37.506Z",
    "exitedAt": "2020-02-04T23:54:37.506Z",
    "label": "Amanpreet's Package #2",
    "address": {
      "street": "1 Market Str",
      "postalCode": "94105",
      "city": "San Francisco",
      "country": "USA",
      "latitude": 37.7941585,
      "longitude": -122.3947916
    },
    "items": [
      { "item_id": "HJK", "item_label": "BestBuy", "item_sku": "283SJKCRJ385" }
    ]
  },
  {
    "delivery_id": "18",
    "driver_id": "Amanpreet",
    "status": "completed",
    "enteredAt": "2020-02-04T22:54:37.506Z",
    "exitedAt": "2020-02-04T23:54:37.506Z",
    "completedAt": "2020-02-04T23:56:37.506Z",
    "label": "Amanpreet's Package #3",
    "address": {
      "street": "1 Market Str",
      "postalCode": "94105",
      "city": "San Francisco",
      "country": "USA",
      "latitude": 37.7941585,
      "longitude": -122.3947916
    },
    "items": [
      { "item_id": "HJK", "item_label": "BestBuy", "item_sku": "283SJKCRJ385" }
    ]
  },
  {
    "delivery_id": "19",
    "driver_id": "Kashyap",
    "status": "pending",
    "label": "Union Square Package",
    "address": {
      "street": "252 Geary Blvd",
      "postalCode": "94108",
      "city": "San Francisco",
      "country": "USA",
      "latitude": 37.787639,
      "longitude": -122.4074808
    },
    "customerNote": "Leave at the Macy's support desk",
    "items": [
      {
        "item_id": "ABC123",
        "item_label": "Amazon-A",
        "item_sku": "ADJW38DJR287"
      },
      {
        "item_id": "DEF456",
        "item_label": "Amazon-B",
        "item_sku": "GKI1643XJW"
      }
    ]
  },
  {
    "delivery_id": "20",
    "driver_id": "Kashyap",
    "status": "pending",
    "label": "Alex's Package",
    "address": {
      "street": "353 Sacramento Str",
      "postalCode": "94111",
      "city": "San Francisco",
      "country": "USA",
      "latitude": 37.7940981,
      "longitude": -122.3996401
    },
    "customerNote": "Leave at the reception on floor 8th",
    "items": [
      {
        "item_id": "ABC123",
        "item_label": "Amazon-A",
        "item_sku": "ADJW38DJR287"
      },
      {
        "item_id": "DEF456",
        "item_label": "Amazon-B",
        "item_sku": "GKI1643XJW"
      }
    ]
  },
  {
    "delivery_id": "21",
    "driver_id": "Kashyap",
    "status": "pending",
    "label": "Kashyap's Package",
    "address": {
      "street": "555 Market Str",
      "postalCode": "94105",
      "city": "San Francisco",
      "country": "USA",
      "latitude": 37.7899845,
      "longitude": -122.3998704
    },
    "customerNote": "Ring my phone so I can pick it up: 4155109422",
    "items": [
      {
        "item_id": "AAA",
        "item_label": "Amazon-C",
        "item_sku": "ASNWKE2916DJK"
      },
      {
        "item_id": "BBB",
        "item_label": "Amazon-D",
        "item_sku": "SNRKCVO59327CS"
      }
    ]
  },
  {
    "delivery_id": "22",
    "driver_id": "Kashyap",
    "status": "pending",
    "label": "AG's Package",
    "address": {
      "street": "1 Market Str",
      "postalCode": "94105",
      "city": "San Francisco",
      "country": "USA",
      "latitude": 37.7941585,
      "longitude": -122.3947916
    },
    "items": [
      { "item_id": "HJK", "item_label": "BestBuy", "item_sku": "283SJKCRJ385" }
    ]
  },
  {
    "delivery_id": "23",
    "driver_id": "Kashyap",
    "status": "visited",
    "enteredAt": "2020-02-04T23:54:37.506Z",
    "label": "AG's Package",
    "address": {
      "street": "1 Market Str",
      "postalCode": "94105",
      "city": "San Francisco",
      "country": "USA",
      "latitude": 37.7941585,
      "longitude": -122.3947916
    },
    "items": [
      { "item_id": "HJK", "item_label": "BestBuy", "item_sku": "283SJKCRJ385" }
    ]
  },
  {
    "delivery_id": "24",
    "driver_id": "Kashyap",
    "status": "visited",
    "enteredAt": "2020-02-04T22:54:37.506Z",
    "exitedAt": "2020-02-04T23:54:37.506Z",
    "label": "AG's Package #2",
    "address": {
      "street": "1 Market Str",
      "postalCode": "94105",
      "city": "San Francisco",
      "country": "USA",
      "latitude": 37.7941585,
      "longitude": -122.3947916
    },
    "items": [
      { "item_id": "HJK", "item_label": "BestBuy", "item_sku": "283SJKCRJ385" }
    ]
  },
  {
    "delivery_id": "25",
    "driver_id": "Kashyap",
    "status": "completed",
    "enteredAt": "2020-02-04T22:54:37.506Z",
    "exitedAt": "2020-02-04T23:54:37.506Z",
    "completedAt": "2020-02-04T23:56:37.506Z",
    "label": "AG's Package #3",
    "address": {
      "street": "1 Market Str",
      "postalCode": "94105",
      "city": "San Francisco",
      "country": "USA",
      "latitude": 37.7941585,
      "longitude": -122.3947916
    },
    "items": [
      { "item_id": "HJK", "item_label": "BestBuy", "item_sku": "283SJKCRJ385" }
    ]
  },
  {
    "delivery_id": "26",
    "driver_id": "Denys",
    "status": "pending",
    "label": "Union Square Package",
    "address": {
      "street": "252 Geary Blvd",
      "postalCode": "94108",
      "city": "San Francisco",
      "country": "USA",
      "latitude": 37.787639,
      "longitude": -122.4074808
    },
    "customerNote": "Leave at the Macy's support desk",
    "items": [
      {
        "item_id": "ABC123",
        "item_label": "Amazon-A",
        "item_sku": "ADJW38DJR287"
      },
      {
        "item_id": "DEF456",
        "item_label": "Amazon-B",
        "item_sku": "GKI1643XJW"
      }
    ]
  },
  {
    "delivery_id": "27",
    "driver_id": "Denys",
    "status": "pending",
    "label": "Alex's Package",
    "address": {
      "street": "353 Sacramento Str",
      "postalCode": "94111",
      "city": "San Francisco",
      "country": "USA",
      "latitude": 37.7940981,
      "longitude": -122.3996401
    },
    "customerNote": "Leave at the reception on floor 8th",
    "items": [
      {
        "item_id": "ABC123",
        "item_label": "Amazon-A",
        "item_sku": "ADJW38DJR287"
      },
      {
        "item_id": "DEF456",
        "item_label": "Amazon-B",
        "item_sku": "GKI1643XJW"
      }
    ]
  },
  {
    "delivery_id": "28",
    "driver_id": "Denys",
    "status": "pending",
    "label": "Kashyap's Package",
    "address": {
      "street": "555 Market Str",
      "postalCode": "94105",
      "city": "San Francisco",
      "country": "USA",
      "latitude": 37.7899845,
      "longitude": -122.3998704
    },
    "customerNote": "Ring my phone so I can pick it up: 4155109422",
    "items": [
      {
        "item_id": "AAA",
        "item_label": "Amazon-C",
        "item_sku": "ASNWKE2916DJK"
      },
      {
        "item_id": "BBB",
        "item_label": "Amazon-D",
        "item_sku": "SNRKCVO59327CS"
      }
    ]
  },
  {
    "delivery_id": "29",
    "driver_id": "Denys",
    "status": "pending",
    "label": "AG's Package",
    "address": {
      "street": "1 Market Str",
      "postalCode": "94105",
      "city": "San Francisco",
      "country": "USA",
      "latitude": 37.7941585,
      "longitude": -122.3947916
    },
    "items": [
      { "item_id": "HJK", "item_label": "BestBuy", "item_sku": "283SJKCRJ385" }
    ]
  },
  {
    "delivery_id": "30",
    "driver_id": "Denys",
    "status": "visited",
    "enteredAt": "2020-02-04T23:54:37.506Z",
    "label": "AG's Package",
    "address": {
      "street": "1 Market Str",
      "postalCode": "94105",
      "city": "San Francisco",
      "country": "USA",
      "latitude": 37.7941585,
      "longitude": -122.3947916
    },
    "items": [
      { "item_id": "HJK", "item_label": "BestBuy", "item_sku": "283SJKCRJ385" }
    ]
  },
  {
    "delivery_id": "31",
    "driver_id": "Denys",
    "status": "visited",
    "enteredAt": "2020-02-04T22:54:37.506Z",
    "exitedAt": "2020-02-04T23:54:37.506Z",
    "label": "AG's Package #2",
    "address": {
      "street": "1 Market Str",
      "postalCode": "94105",
      "city": "San Francisco",
      "country": "USA",
      "latitude": 37.7941585,
      "longitude": -122.3947916
    },
    "items": [
      { "item_id": "HJK", "item_label": "BestBuy", "item_sku": "283SJKCRJ385" }
    ]
  },
  {
    "delivery_id": "32",
    "driver_id": "Denys",
    "status": "completed",
    "enteredAt": "2020-02-04T22:54:37.506Z",
    "exitedAt": "2020-02-04T23:54:37.506Z",
    "completedAt": "2020-02-04T23:56:37.506Z",
    "label": "AG's Package #3",
    "address": {
      "street": "1 Market Str",
      "postalCode": "94105",
      "city": "San Francisco",
      "country": "USA",
      "latitude": 37.7941585,
      "longitude": -122.3947916
    },
    "items": [
      { "item_id": "HJK", "item_label": "BestBuy", "item_sku": "283SJKCRJ385" }
    ]
  },
  {
    "delivery_id": "33",
    "driver_id": "Eugene",
    "status": "pending",
    "label": "Union Square Package",
    "address": {
      "street": "252 Geary Blvd",
      "postalCode": "94108",
      "city": "San Francisco",
      "country": "USA",
      "latitude": 37.787639,
      "longitude": -122.4074808
    },
    "customerNote": "Leave at the Macy's support desk",
    "items": [
      {
        "item_id": "ABC123",
        "item_label": "Amazon-A",
        "item_sku": "ADJW38DJR287"
      },
      {
        "item_id": "DEF456",
        "item_label": "Amazon-B",
        "item_sku": "GKI1643XJW"
      }
    ]
  },
  {
    "delivery_id": "34",
    "driver_id": "Eugene",
    "status": "pending",
    "label": "Alex's Package",
    "address": {
      "street": "353 Sacramento Str",
      "postalCode": "94111",
      "city": "San Francisco",
      "country": "USA",
      "latitude": 37.7940981,
      "longitude": -122.3996401
    },
    "customerNote": "Leave at the reception on floor 8th",
    "items": [
      {
        "item_id": "ABC123",
        "item_label": "Amazon-A",
        "item_sku": "ADJW38DJR287"
      },
      {
        "item_id": "DEF456",
        "item_label": "Amazon-B",
        "item_sku": "GKI1643XJW"
      }
    ]
  },
  {
    "delivery_id": "35",
    "driver_id": "Eugene",
    "status": "pending",
    "label": "Kashyap's Package",
    "address": {
      "street": "555 Market Str",
      "postalCode": "94105",
      "city": "San Francisco",
      "country": "USA",
      "latitude": 37.7899845,
      "longitude": -122.3998704
    },
    "customerNote": "Ring my phone so I can pick it up: 4155109422",
    "items": [
      {
        "item_id": "AAA",
        "item_label": "Amazon-C",
        "item_sku": "ASNWKE2916DJK"
      },
      {
        "item_id": "BBB",
        "item_label": "Amazon-D",
        "item_sku": "SNRKCVO59327CS"
      }
    ]
  },
  {
    "delivery_id": "36",
    "driver_id": "Eugene",
    "status": "pending",
    "label": "AG's Package",
    "address": {
      "street": "1 Market Str",
      "postalCode": "94105",
      "city": "San Francisco",
      "country": "USA",
      "latitude": 37.7941585,
      "longitude": -122.3947916
    },
    "items": [
      { "item_id": "HJK", "item_label": "BestBuy", "item_sku": "283SJKCRJ385" }
    ]
  },
  {
    "delivery_id": "37",
    "driver_id": "Eugene",
    "status": "visited",
    "enteredAt": "2020-02-04T23:54:37.506Z",
    "label": "AG's Package",
    "address": {
      "street": "1 Market Str",
      "postalCode": "94105",
      "city": "San Francisco",
      "country": "USA",
      "latitude": 37.7941585,
      "longitude": -122.3947916
    },
    "items": [
      { "item_id": "HJK", "item_label": "BestBuy", "item_sku": "283SJKCRJ385" }
    ]
  },
  {
    "delivery_id": "38",
    "driver_id": "Eugene",
    "status": "visited",
    "enteredAt": "2020-02-04T22:54:37.506Z",
    "exitedAt": "2020-02-04T23:54:37.506Z",
    "label": "AG's Package #2",
    "address": {
      "street": "1 Market Str",
      "postalCode": "94105",
      "city": "San Francisco",
      "country": "USA",
      "latitude": 37.7941585,
      "longitude": -122.3947916
    },
    "items": [
      { "item_id": "HJK", "item_label": "BestBuy", "item_sku": "283SJKCRJ385" }
    ]
  },
  {
    "delivery_id": "39",
    "driver_id": "Eugene",
    "status": "completed",
    "enteredAt": "2020-02-04T22:54:37.506Z",
    "exitedAt": "2020-02-04T23:54:37.506Z",
    "completedAt": "2020-02-04T23:56:37.506Z",
    "label": "AG's Package #3",
    "address": {
      "street": "1 Market Str",
      "postalCode": "94105",
      "city": "San Francisco",
      "country": "USA",
      "latitude": 37.7941585,
      "longitude": -122.3947916
    },
    "items": [
      { "item_id": "HJK", "item_label": "BestBuy", "item_sku": "283SJKCRJ385" }
    ]
  },
  {
    "delivery_id": "40",
    "driver_id": "AK",
    "status": "pending",
    "label": "Union Square Package",
    "address": {
      "street": "252 Geary Blvd",
      "postalCode": "94108",
      "city": "San Francisco",
      "country": "USA",
      "latitude": 37.787639,
      "longitude": -122.4074808
    },
    "customerNote": "Leave at the Macy's support desk",
    "items": [
      {
        "item_id": "ABC123",
        "item_label": "Amazon-A",
        "item_sku": "ADJW38DJR287"
      },
      {
        "item_id": "DEF456",
        "item_label": "Amazon-B",
        "item_sku": "GKI1643XJW"
      }
    ]
  },
  {
    "delivery_id": "41",
    "driver_id": "AK",
    "status": "pending",
    "label": "Alex's Package",
    "address": {
      "street": "353 Sacramento Str",
      "postalCode": "94111",
      "city": "San Francisco",
      "country": "USA",
      "latitude": 37.7940981,
      "longitude": -122.3996401
    },
    "customerNote": "Leave at the reception on floor 8th",
    "items": [
      {
        "item_id": "ABC123",
        "item_label": "Amazon-A",
        "item_sku": "ADJW38DJR287"
      },
      {
        "item_id": "DEF456",
        "item_label": "Amazon-B",
        "item_sku": "GKI1643XJW"
      }
    ]
  },
  {
    "delivery_id": "42",
    "driver_id": "AK",
    "status": "pending",
    "label": "Kashyap's Package",
    "address": {
      "street": "555 Market Str",
      "postalCode": "94105",
      "city": "San Francisco",
      "country": "USA",
      "latitude": 37.7899845,
      "longitude": -122.3998704
    },
    "customerNote": "Ring my phone so I can pick it up: 4155109422",
    "items": [
      {
        "item_id": "AAA",
        "item_label": "Amazon-C",
        "item_sku": "ASNWKE2916DJK"
      },
      {
        "item_id": "BBB",
        "item_label": "Amazon-D",
        "item_sku": "SNRKCVO59327CS"
      }
    ]
  },
  {
    "delivery_id": "43",
    "driver_id": "AK",
    "status": "pending",
    "label": "AG's Package",
    "address": {
      "street": "1 Market Str",
      "postalCode": "94105",
      "city": "San Francisco",
      "country": "USA",
      "latitude": 37.7941585,
      "longitude": -122.3947916
    },
    "items": [
      { "item_id": "HJK", "item_label": "BestBuy", "item_sku": "283SJKCRJ385" }
    ]
  },
  {
    "delivery_id": "44",
    "driver_id": "AK",
    "status": "visited",
    "enteredAt": "2020-02-04T23:54:37.506Z",
    "label": "AG's Package",
    "address": {
      "street": "1 Market Str",
      "postalCode": "94105",
      "city": "San Francisco",
      "country": "USA",
      "latitude": 37.7941585,
      "longitude": -122.3947916
    },
    "items": [
      { "item_id": "HJK", "item_label": "BestBuy", "item_sku": "283SJKCRJ385" }
    ]
  },
  {
    "delivery_id": "45",
    "driver_id": "AK",
    "status": "visited",
    "enteredAt": "2020-02-04T22:54:37.506Z",
    "exitedAt": "2020-02-04T23:54:37.506Z",
    "label": "AG's Package #2",
    "address": {
      "street": "1 Market Str",
      "postalCode": "94105",
      "city": "San Francisco",
      "country": "USA",
      "latitude": 37.7941585,
      "longitude": -122.3947916
    },
    "items": [
      { "item_id": "HJK", "item_label": "BestBuy", "item_sku": "283SJKCRJ385" }
    ]
  },
  {
    "delivery_id": "46",
    "driver_id": "AK",
    "status": "completed",
    "enteredAt": "2020-02-04T22:54:37.506Z",
    "exitedAt": "2020-02-04T23:54:37.506Z",
    "completedAt": "2020-02-04T23:56:37.506Z",
    "label": "AG's Package #3",
    "address": {
      "street": "1 Market Str",
      "postalCode": "94105",
      "city": "San Francisco",
      "country": "USA",
      "latitude": 37.7941585,
      "longitude": -122.3947916
    },
    "items": [
      { "item_id": "HJK", "item_label": "BestBuy", "item_sku": "283SJKCRJ385" }
    ]
  }
]
